[
    {
        "fields": {
            "address1": "Address line 1",
            "address2": "Address line 2",
            "city": "Chicago",
            "country": "US",
            "created": "2018-12-20T23:12:56.978",
            "latitude": null,
            "longitude": null,
            "name": "org c30409ad",
            "notes": "Some notes",
            "state": "Illinois",
            "status": "ok",
            "updated": "2018-12-20T23:12:56.978",
            "version": 0,
            "website": "https://www.peeringdb.com",
            "zipcode": "12345"
        },
        "model": "django_peeringdb.organization",
        "pk": 7
    },
    {
        "fields": {
            "address1": "Address line 1",
            "address2": "Address line 2",
            "city": "Chicago",
            "country": "US",
            "created": "2018-12-20T23:12:57.134",
            "latitude": null,
            "longitude": null,
            "name": "org c496f949",
            "notes": "Some notes",
            "state": "Illinois",
            "status": "ok",
            "updated": "2018-12-20T23:12:57.134",
            "version": 0,
            "website": "https://www.peeringdb.com",
            "zipcode": "12345"
        },
        "model": "django_peeringdb.organization",
        "pk": 8
    },
    {
        "fields": {
            "address1": "Address line 1",
            "address2": "Address line 2",
            "city": "Chicago",
            "country": "US",
            "created": "2018-12-20T23:12:57.241",
            "latitude": null,
            "longitude": null,
            "name": "org 267fea96",
            "notes": "Some notes",
            "state": "Illinois",
            "status": "ok",
            "updated": "2018-12-20T23:12:57.241",
            "version": 0,
            "website": "https://www.peeringdb.com",
            "zipcode": "12345"
        },
        "model": "django_peeringdb.organization",
        "pk": 9
    },
    {
        "fields": {
            "address1": "Address line 1",
            "address2": "Address line 2",
            "city": "Chicago",
            "country": "US",
            "created": "2018-12-20T23:12:57.347",
            "latitude": null,
            "longitude": null,
            "name": "org 8ba01069",
            "notes": "Some notes",
            "state": "Illinois",
            "status": "ok",
            "updated": "2018-12-20T23:12:57.347",
            "version": 0,
            "website": "https://www.peeringdb.com",
            "zipcode": "12345"
        },
        "model": "django_peeringdb.organization",
        "pk": 10
    },
    {
        "fields": {
            "address1": "Address line 1",
            "address2": "Address line 2",
            "city": "Chicago",
            "country": "US",
            "created": "2018-12-20T23:12:57.455",
            "latitude": null,
            "longitude": null,
            "name": "org d3f044e7",
            "notes": "Some notes",
            "state": "Illinois",
            "status": "ok",
            "updated": "2018-12-20T23:12:57.455",
            "version": 0,
            "website": "https://www.peeringdb.com",
            "zipcode": "12345"
        },
        "model": "django_peeringdb.organization",
        "pk": 11
    },
    {
        "fields": {
            "address1": "Address line 1",
            "address2": "Address line 2",
            "city": "Chicago",
            "country": "US",
            "created": "2018-12-20T23:12:57.504",
            "latitude": null,
            "longitude": null,
            "name": "org 99532547",
            "notes": "Some notes",
            "state": "Illinois",
            "status": "ok",
            "updated": "2018-12-20T23:12:57.504",
            "version": 0,
            "website": "https://www.peeringdb.com",
            "zipcode": "12345"
        },
        "model": "django_peeringdb.organization",
        "pk": 12
    },
    {
        "fields": {
            "address1": "Address line 1",
            "address2": "Address line 2",
            "city": "Chicago",
            "country": "US",
            "created": "2018-12-20T23:12:57.553",
            "latitude": null,
            "longitude": null,
            "name": "org 3331abc6",
            "notes": "Some notes",
            "state": "Illinois",
            "status": "ok",
            "updated": "2018-12-20T23:12:57.553",
            "version": 0,
            "website": "https://www.peeringdb.com",
            "zipcode": "12345"
        },
        "model": "django_peeringdb.organization",
        "pk": 13
    },
    {
        "fields": {
            "address1": "Address line 1",
            "address2": "Address line 2",
            "city": "Chicago",
            "country": "US",
            "created": "2018-12-20T23:12:57.601",
            "latitude": null,
            "longitude": null,
            "name": "org c1ec5f1d",
            "notes": "Some notes",
            "state": "Illinois",
            "status": "ok",
            "updated": "2018-12-20T23:12:57.601",
            "version": 0,
            "website": "https://www.peeringdb.com",
            "zipcode": "12345"
        },
        "model": "django_peeringdb.organization",
        "pk": 14
    }
]